num,DEPARTAMEN,PROVINCIA,MUNICIPIO,id,objectid,c_ut,CAPITAL,shape_leng,shape_area,name,CODIGO,CODIGODEPA,CODIGOPROV,CODIGOMUNI,lon,lat
1,Oruro,Litoral,Esmeralda,47,763,040505,Esmeralda,157773.865159,582679898.709,Esmeralda,040505,04,05,05,-68.0881688090567,-18.9457113010496
2,Oruro,Abaroa,Quillacas,48,764,040202,Santuario de Quillacas,168822.092913,927546979.861,Quillacas,040202,04,02,02,-66.8133310273977,-19.319412746351
3,Oruro,Ladislao Cabrera,Pampa Aullagas,49,765,040802,Pampa Aullagas,170278.352785,1011607080.1,Pampa Aullagas,040802,04,08,02,-67.1651475482493,-19.2314827168663
4,Potosí,Rafael Bustillo,Llallagua,55,772,050203,Llallagua,108042.75049,524382703.566,Llallagua,050203,05,02,03,-66.5721350028464,-18.3633877943788
5,Potosí,Alonso de Ibáñez,Caripuyo,56,773,050702,Caripuyo,127710.107729,518123039.401,Caripuyo,050702,05,07,02,-66.5932452329459,-18.1802232050603
6,,,,57,774,Lago,,71070.9055914,114090567.678,,,,,,-67.1025396185482,-18.0971988597456
7,Cochabamba,Campero,Aiquile,61,2515,030201,Aiquile,299960.196725,2667053267.85,Aiquile,030201,03,02,01,-65.1038046339701,-18.3233624824775
8,Potosí,Alonso de Ibáñez,Villa de Sacaca,62,778,050701,Villa de Sacaca,171932.317899,909077390.693,Villa de Sacaca,050701,05,07,01,-66.3436341661262,-18.1176532286131
9,Potosí,Bernardino Bilbao Rioja,Acasio,63,779,051302,Acasio,105215.436565,372925227.914,Acasio,051302,05,13,02,-66.0144653736693,-18.0500039920078
10,Oruro,Pantaleón Dalence,Huanuni,64,780,040701,Villa de Huanuni,172451.737964,563608184.049,Huanuni,040701,04,07,01,-66.7650104949832,-18.2626895053575
11,Oruro,Litoral,Huachacalla,46,762,040501,Huachacalla,20176.1511988,20712059.271,Huachacalla,040501,04,05,01,-68.2750595839331,-18.7943828339161
12,Oruro,Sebastián Pagador,Huari,50,766,041401,Santiago de Huari,253445.85461,2389998353.11,Huari,041401,04,14,01,-66.563678202278,-19.164323072024
13,Oruro,Poopó,Pazña,51,767,040602,Pazña,167824.859194,740453174.53,Pazña,040602,04,06,02,-66.9129692281086,-18.6134153228209
14,Cochabamba,Punata,Villa Rivero,72,789,031402,Villa Rivero,51656.444082,98941319.7565,Villa Rivero,031402,03,14,02,-65.8527767360903,-17.6482572313135
15,Oruro,Sur Carangas,Santiago de Andamarca,52,775,041201,Santiago de Andamarca,253266.447783,2314680096.31,Santiago de Andamarca,041201,04,12,01,-67.3810571756197,-18.8925523702234
16,La Paz,Gualberto Villarroel,Chacarilla,86,803,021803,Chacarilla,102742.932541,360694198.144,Chacarilla,021803,02,18,03,-68.1700322100095,-17.5485625979439
17,Cochabamba,Esteban Arze,Arbieto,88,805,030403,Arbieto,75132.2685529,146735546.049,Arbieto,030403,03,04,03,-66.0650641896046,-17.5582753277732
18,La Paz,Gualberto Villarroel,Papel Pampa,90,807,021802,Papel Pampa,149413.465932,854410170.141,Papel Pampa,021802,02,18,02,-67.7095818588955,-17.6972037165591
19,La Paz,Aroma,Umala,92,809,021302,Umala,145342.275233,864409330.562,Umala,021302,02,13,02,-67.9971988713715,-17.4039785290209
20,Oruro,Cercado,Oruro,77,794,040101,Oruro,67600.233784,257305487.947,Oruro,040101,04,01,01,-67.0914949032445,-17.9599844640244
21,Oruro,Nor Carangas,Huayllamarca,78,795,041601,Santiago de Huayllamarca,171984.72402,897654791.038,Huayllamarca,041601,04,16,01,-67.8201577086143,-17.9274900509608
22,La Paz,Gualberto Villarroel,San Pedro de Curahuara,79,796,021801,San Pedro de Curahuara,147927.125145,784815616.365,San Pedro de Curahuara,021801,02,18,01,-67.9666358264226,-17.6334867097179
23,Cochabamba,Capinota,Sicaya,80,797,030703,Sicaya,56884.7902717,114552010.44,Sicaya,030703,03,07,03,-66.341588958912,-17.7912178083898
24,Santa Cruz,Germán Busch,Puerto Quijarro,81,798,071402,Puerto Quijarro,305366.680308,1429551596.3,Puerto Quijarro,071402,07,14,02,-57.6849657211787,-18.4262011226949
25,Cochabamba,Capinota,Capinota,82,799,030701,Capinota,128146.456951,564660253.768,Capinota,030701,03,07,01,-66.2267897492764,-17.7775537754722
26,Cochabamba,Arque,Arque,83,800,030601,Villa de Arque,132834.656361,515460198.648,Arque,030601,03,06,01,-66.4168229233801,-17.8257790505537
27,La Paz,Pacajes,Corocoro,103,821,020301,Corocoro,257719.975903,1093780227.56,Corocoro,020301,02,03,01,-68.4322349288714,-17.1731344700384
28,Cochabamba,Punata,San Benito,101,819,031403,Villa José Quintín Mendoza,63358.1525868,140239637.45,San Benito,031403,03,14,03,-65.8789686107362,-17.4981990989913
29,La Paz,Loayza,Sapahaqui,114,831,020902,Sapahaqui,157826.720026,809678986.24,Sapahaqui,020902,02,09,02,-67.8359762895291,-16.9535851249777
30,La Paz,Loayza,Cairoma,115,832,020905,Cairoma,138323.690541,680395822.185,Cairoma,020905,02,09,05,-67.5768864022709,-16.8457777308196
31,La Paz,Inquisivi,Colquiri,117,834,021004,Colquiri,161371.35482,1004067858.95,Colquiri,021004,02,10,04,-66.994184339265,-17.4213143967575
32,La Paz,Inquisivi,Ichoca,118,835,021005,Ichoca,154345.173719,833629495.605,Ichoca,021005,02,10,05,-67.1934845421029,-17.1849177343515
33,Santa Cruz,Andrés Ibáñez,La Guardia,236,969,070104,La Guardia,230412.706982,971228575.61,La Guardia,070104,07,01,04,-63.2339492264597,-18.0537226225919
34,Santa Cruz,Vallegrande,Moro Moro,237,971,070803,Moromoro,154498.494104,676029778.745,Moro Moro,070803,07,08,03,-64.3439942118013,-18.3206014655967
35,Santa Cruz,Andrés Ibáñez,El Torno,238,972,070105,El Torno,173908.01407,963510013.774,El Torno,070105,07,01,05,-63.4688591395615,-18.0488023312605
36,Santa Cruz,Florida,Samaipata,239,973,070901,Samaipata,281774.567534,1913319680.12,Samaipata,070901,07,09,01,-63.7500244307524,-18.1752678610325
37,Chuquisaca,Nor Cinti,San Lucas,266,1005,010702,San Lucas,398014.000126,3877202437.03,San Lucas,010702,01,07,02,-64.8992965615405,-20.1607008337474
38,Chuquisaca,Sud Cinti,Culpina,267,1006,010902,Culpina,444899.73155,3888718660.16,Culpina,010902,01,09,02,-64.5720039840266,-20.8697757736721
39,Chuquisaca,Nor Cinti,Incahuasi,268,1007,010703,Incahuasi,220512.109219,1040604357.17,Incahuasi,010703,01,07,03,-64.5721345120353,-20.5906883982145
40,Santa Cruz,Ichilo,San Juan de Yapacaní,269,1009,070404,San Juan,560421.994183,1574623815.58,San Juan de Yapacaní,070404,07,04,04,-63.9986560639474,-16.8613507628111
41,Potosí,Tomás Frías,Tinguipaya,270,1010,050102,Tinguipaya,187558.833748,1421701233.33,Tinguipaya,050102,05,01,02,-65.9040959582422,-19.1700080475892
42,Potosí,Charcas,San Pedro de Buena Vista,271,1011,050501,San Pedro,258126.061726,2198687896.7,San Pedro de Buena Vista,050501,05,05,01,-65.9682190292644,-18.3406283882163
43,La Paz,Omasuyos,Ancoraimes,186,909,020202,Villa Ancoraimes,93563.9845727,332116204.798,Ancoraimes,020202,02,02,02,-68.868759716288,-15.854259821691
44,Potosí,Nor Lípez,"Colcha ""K""",187,910,050901,Villa Martín,1079436.81912,18188610586.4,"Colcha ""K""",050901,05,09,01,-67.3142000997359,-21.2043381786343
45,La Paz,Camacho,Puerto Carabuco,188,913,020403,Carabuco,142294.065043,382525615.368,Puerto Carabuco,020403,02,04,03,-69.000922868825,-15.7119661918142
46,Oruro,Sabaya,Sabaya,189,914,040901,Sabaya,467114.92497,3588859486.47,Sabaya,040901,04,09,01,-68.6098823967633,-18.9076554580937
47,Beni,Marbán,Loreto,286,1029,080601,Loreto,617427.95155,6777967170.38,Loreto,080601,08,06,01,-64.9204166040973,-15.5680904878135
48,Potosí,Antonio Quijarro,Tomave,32,751,051202,Tomave,498762.62982,8125443027.17,Tomave,051202,05,12,02,-66.394282182299,-20.1016061824933
49,Potosí,Antonio Quijarro,Porco,33,752,051203,Porco,157920.993126,1083668495.42,Porco,051203,05,12,03,-65.9841479693438,-19.8079684668738
50,,,,34,753,Salar,,1033956.19818,9349140153.98,,,,,,-67.6088506161848,-20.1962718952202
51,Tarija,Gran Chaco,Villamontes,35,754,060303,Villa Montes,555303.70962,10837043506.5,Villamontes,060303,06,03,03,-62.9117643006193,-21.4009451594657
52,Potosí,Tomás Frías,Yocalla,36,755,050103,Villa de Yocalla,154814.541135,897075170.821,Yocalla,050103,05,01,03,-65.9409900038197,-19.4955687278799
53,Potosí,Tomás Frías,Urmiri,37,756,050104,Belén de Urmiri,150035.528319,1240070412.03,Urmiri,050104,05,01,04,-66.1807398913827,-19.4728148853531
54,,,,38,757,Salar,,421048.813295,2125331886.74,,,,,,-68.1271843754553,-19.3786879226532
55,La Paz,Camacho,Mocomoco,192,920,020402,Mocomoco,153538.85962,648475765.182,Mocomoco,020402,02,04,02,-69.0357673147384,-15.4499863622057
56,Santa Cruz,Manuel María Caballero,Saipina,241,975,071302,Saipina,114028.931164,446879517.603,Saipina,071302,07,13,02,-64.6399348497797,-18.0235630920665
57,Cochabamba,Campero,Omereque,242,977,030203,Omereque,163086.789102,761891013.001,Omereque,030203,03,02,03,-64.8933155197639,-18.0705136286212
58,Santa Cruz,Andrés Ibáñez,Porongo,243,978,070103,Porongo (Ayacucho),152915.943861,933379714.552,Porongo,070103,07,01,03,-63.36484120199,-17.7502555604345
59,Santa Cruz,Andrés Ibáñez,Santa Cruz de la Sierra,244,979,070101,Santa Cruz de la Sierra,282975.455809,1290597119.65,Santa Cruz de la Sierra,070101,07,01,01,-62.9981240724548,-17.80706109959
60,Beni,Moxos,San Ignacio,288,1031,080501,San Ignacio,1179500.21579,24938102923.1,San Ignacio,080501,08,05,01,-65.6867458064795,-15.4685866399574
61,Beni,Cercado,San Javier,289,1032,080102,San Javier,525947.157731,8735957267.34,San Javier,080102,08,01,02,-64.4254224151821,-14.422061497551
62,Santa Cruz,Obispo Santistevan,San Pedro,290,1033,071005,San Pedro,580104.672238,3053025640.23,San Pedro,071005,07,10,05,-63.6119715079768,-16.5173416076468
63,La Paz,Inquisivi,Cajuata,304,1051,021003,Cajuata,147132.109603,706656918.959,Cajuata,021003,02,10,03,-67.2474451386677,-16.637514219918
64,La Paz,Inquisivi,Inquisivi,305,1052,021001,Inquisivi,362852.799761,3264341782.01,Inquisivi,021001,02,10,01,-66.977970564331,-16.6832233611722
65,La Paz,Sud Yungas,Irupana,306,1053,021102,Villa de Lanza,231262.758702,1348681232.15,Irupana,021102,02,11,02,-67.5101940576404,-16.5111260817928
66,La Paz,Sud Yungas,Chulumani,307,1054,021101,Villa de la Libertad,88399.9381358,299618675.76,Chulumani,021101,02,11,01,-67.5376339700577,-16.3891439750199
67,Oruro,Poopó,Poopó,308,1055,040601,Villa de Poopó,147945.813239,685679592.507,Poopó,040601,04,06,01,-66.9415747492653,-18.3667148633432
68,Oruro,San Pedro de Totora,San Pedro de Totora,310,1057,041301,Totora,193347.707828,1370202756.45,San Pedro de Totora,041301,04,13,01,-68.1799471061279,-17.8548895992255
69,Potosí,Cornelio Saavedra,Betanzos,311,1058,050301,Villa de Betanzos,280649.152649,1866392235.44,Betanzos,050301,05,03,01,-65.2276362075623,-19.4582158747171
70,Oruro,Sajama,Turco,312,1059,040402,Turco,336299.168153,4691756756.54,Turco,040402,04,04,02,-68.5302389233543,-18.3370625990994
71,Oruro,Mejillones,Todos Santos,39,758,041502,Todos Santos,76487.7960688,217478566.327,Todos Santos,041502,04,15,02,-68.7586242919886,-19.0281541336088
72,Santa Cruz,Ñuflo de Chávez,Concepción,40,1202,071101,Concepción,1277410.51005,28943022789.3,Concepción,071101,07,11,01,-62.1121246378297,-15.2984533371349
73,Santa Cruz,Sara,Santa Rosa del Sara,41,1271,070602,Santa Rosa,829081.566015,4062707090.23,Santa Rosa del Sara,070602,07,06,02,-63.8386858376197,-16.6592505048907
74,Beni,Iténez,Huacaraje,42,1279,080803,Huacaraje,383893.688904,5484287723.15,Huacaraje,080803,08,08,03,-64.0627529978392,-13.8239836756862
75,Oruro,Mejillones,La Rivera,43,759,041501,La Rivera,72109.1336827,217370868.861,La Rivera,041501,04,15,01,-68.6601199970114,-19.0620462621532
76,Tarija,Burnet O' Connor,Entre Ríos,325,1696,060601,Entre Ríos,460998.301339,5943544554.94,Entre Ríos,060601,06,06,01,-64.0658764544695,-21.3980013081577
77,Beni,Mamoré,San Joaquín,326,1988,080701,San Joaquín,937212.251401,8646327127.47,San Joaquín,080701,08,07,01,-64.8557320082561,-12.9608280148136
78,Beni,Mamoré,San Ramón,327,1990,080702,San Ramón,734711.784143,7952897541.75,San Ramón,080702,08,07,02,-64.5998396404971,-13.508095626164
79,La Paz,Ingavi,Tiahuanacu,328,1991,020803,Tiahuanacu,103676.595984,349917531.891,Tiahuanacu,020803,02,08,03,-68.69574424013,-16.558764066029
80,Potosí,Chayanta,Colquechaca,1,1983,050401,Colquechaca,278495.699344,1733432400.92,Colquechaca,050401,05,04,01,-66.0135409815052,-18.808073946303
81,Potosí,Chayanta,Pocoata,2,1984,050403,Pocoata,201892.45819,1183688905.13,Pocoata,050403,05,04,03,-66.1557697134427,-18.6393755118797
82,Potosí,Daniel Campos,Llica,3,724,051401,Llica,513756.202144,5679932273.44,Llica,051401,05,14,01,-68.412137801798,-20.0502679556206
83,Cochabamba,Quillacollo,Quillacollo,4,725,030901,Quillacollo,147207.164735,563129596.497,Quillacollo,030901,03,09,01,-66.329214248659,-17.2112536858
84,Cochabamba,Chapare,Sacaba,5,726,031001,Sacaba,167049.55194,745226749.739,Sacaba,031001,03,10,01,-66.0304329846629,-17.3316334267033
85,Cochabamba,Quillacollo,Tiquipaya,6,727,030903,Tiquipaya,112084.531834,314546503.806,Tiquipaya,030903,03,09,03,-66.2020267998181,-17.1885965245533
86,Cochabamba,Quillacollo,Colcapirhua,7,728,030905,Colcapirhua,25861.9878676,28982156.0325,Colcapirhua,030905,03,09,05,-66.2325649728412,-17.3904980751487
87,Cochabamba,Quillacollo,Sipesipe,8,729,030902,Sipesipe,176386.09255,501294456.219,Sipesipe,030902,03,09,02,-66.3916973203564,-17.5028771621474
88,Cochabamba,Quillacollo,Vinto,9,730,030904,Vinto,69847.2369721,213407595.277,Vinto,030904,03,09,04,-66.3740892839517,-17.3421997646674
89,Cochabamba,Esteban Arze,Tarata,10,1871,030401,Tarata,97125.7078511,336316030.445,Tarata,030401,03,04,01,-66.0653599104923,-17.6918290586018
90,Cochabamba,Carrasco,Totora,11,1087,031201,Totora,307329.939248,2120388682.94,Totora,031201,03,12,01,-65.1443281518386,-17.586335056731
91,Santa Cruz,Ichilo,Buena Vista,12,1251,070401,Buena Vista,390533.353542,2711519713.6,Buena Vista,070401,07,04,01,-63.7559551969779,-17.6977582315212
92,Santa Cruz,Ichilo,San Carlos,13,1254,070402,San Carlos,258905.047575,1208300828.39,San Carlos,070402,07,04,02,-63.7535999884876,-17.2907297154059
93,Beni,Iténez,Magdalena,14,1283,080801,Magdalena,693090.684016,14048806166.2,Magdalena,080801,08,08,01,-63.6875290685084,-12.9948015998564
94,Santa Cruz,Sara,Portachuelo,15,1324,070601,Portachuelo,198110.235715,1101903541.78,Portachuelo,070601,07,06,01,-63.4485751723098,-17.3568644758111
95,Potosí,Sur Lípez,San Antonio de Esmoruco,16,732,051003,San Antonio de Esmoruco,275115.823663,2528460473.18,San Antonio de Esmoruco,051003,05,10,03,-66.6344598503395,-22.084152727821
96,Tarija,Aviles,Uriondo,17,733,060401,Concepción,172211.937921,826307968.347,Uriondo,060401,06,04,01,-64.7084717376259,-21.7429947195549
97,Potosí,Sur Lípez,Mojinete,18,735,051002,Mojinete,108910.834987,400148734.389,Mojinete,051002,05,10,02,-66.3512247556186,-21.8139642720575
98,Tarija,Gran Chaco,Yacuiba,19,736,060301,Yacuiba,284358.794617,3928809378.6,Yacuiba,060301,06,03,01,-63.2844690927628,-21.796046187431
99,Tarija,Aviles,Yunchará,20,737,060402,Yunchará,232445.133952,1848312037.27,Yunchará,060402,06,04,02,-65.1628328121644,-21.7902867095904
100,Tarija,Gran Chaco,Caraparí,21,739,060302,Caraparí,432373.98225,2932456744.51,Caraparí,060302,06,03,02,-63.8989137027815,-21.815936300138
101,Tarija,Méndez,Villa San Lorenzo,22,741,060501,Villa San Lorenzo,270657.613625,1976874152.68,Villa San Lorenzo,060501,06,05,01,-64.6952451868725,-21.2341634422435
102,Tarija,Méndez,El Puente,23,742,060502,El Puente,291928.35858,2062691148.71,El Puente,060502,06,05,02,-65.049410970332,-21.2784640113732
103,Potosí,Charcas,Toro Toro,24,2554,050502,Toro Toro,201702.900021,1173739833.9,Toro Toro,050502,05,05,02,-65.7008706701339,-18.2095380390111
104,Potosí,Enrique Baldivieso,San Agustín,25,743,051601,San Agustín,244235.827272,2345068369.29,San Agustín,051601,05,16,01,-67.413958662316,-21.4952964405533
105,Tarija,Cercado,Tarija,26,1694,060101,Tarija,341442.002288,2064610305.69,Tarija,060101,06,01,01,-64.5939866409026,-21.559506002061
106,Potosí,Daniel Campos,Tahua,27,745,051402,Tahua,544837.016759,1300482214.41,Tahua,051402,05,14,02,-67.9437507490033,-20.2873876631662
107,Potosí,Sur Lípez,San Pablo de Lípez,28,746,051001,San Pablo de Lípez,694541.78116,13291509209.8,San Pablo de Lípez,051001,05,10,01,-67.2341873184844,-22.177104106592
108,Chuquisaca,Sud Cinti,Las Carreras,29,747,010903,Las Carreras,172394.846234,905390833.277,Las Carreras,010903,01,09,03,-65.3201974294068,-21.295671228272
109,Chuquisaca,Sud Cinti,Villa Abecia,30,748,010901,Villa Abecia,145415.747256,659773976.223,Villa Abecia,010901,01,09,01,-65.2876799834545,-20.9863169399249
110,Cochabamba,Ayopaya,Morochata,31,750,030302,Morochata,142803.104601,732179711.326,Morochata,030302,03,03,02,-66.5706229726761,-17.2028618233194
111,Oruro,Mejillones,Carangas,44,760,041503,Carangas,85089.9316916,226355339.713,Carangas,041503,04,15,03,-68.6654166370122,-18.9015713332775
112,Oruro,Litoral,Yunguyo de Litoral,45,761,040504,Yunguyo del Litoral,70639.9181413,179088448.458,Yunguyo de Litoral,040504,04,05,04,-68.3517137385906,-18.8759101913571
113,Oruro,Litoral,Cruz de Machacamarca,53,770,040503,Cruz de Machacamarca,102650.522437,526553426.421,Cruz de Machacamarca,040503,04,05,03,-68.3743890885981,-18.7168138516103
114,Oruro,Poopó,Antequera,54,771,040603,Antequera,96010.1608674,277839737.127,Antequera,040603,04,06,03,-66.7754252648296,-18.5249436596018
115,La Paz,Pacajes,Nazacara de Pacajes,106,824,020307,Nazacara de Pacajes,20309.3346225,18294673.163,Nazacara de Pacajes,020307,02,03,07,-68.7576704836638,-16.926546889813
116,La Paz,Pacajes,Caquiaviri,107,825,020302,Caquiaviri,313615.257745,1537302941.95,Caquiaviri,020302,02,03,02,-68.8179359475859,-17.0852304086984
117,Oruro,Sur Carangas,Belén de Andamarca,58,769,041202,Belén de Andamarca,174432.410434,1063035897.01,Belén de Andamarca,041202,04,12,02,-67.7498010356668,-18.8920375313552
118,,,,59,776,Lago,,251494.187749,1276658746.33,,,,,,-67.0493312783156,-18.8410555003786
119,Oruro,Carangas,Corque,60,777,040301,Corque,254231.423686,3246109213.62,Corque,040301,04,03,01,-67.7994522033872,-18.4641491300717
120,Potosí,Nor Chichas,Vitichi,108,2501,050602,Vitiche,231850.395337,1612587558.44,Vitichi,050602,05,06,02,-65.4324265463188,-20.3496341489152
121,La Paz,Loayza,Luribay,109,826,020901,Luribay,135280.249421,447591280.557,Luribay,020901,02,09,01,-67.6347981637657,-17.093869597454
122,Oruro,Pantaleón Dalence,Machacamarca,65,781,040702,Machacamarca,95955.5888076,323797105.226,Machacamarca,040702,04,07,02,-66.9744795254038,-18.1532895953265
123,Potosí,Bernardino Bilbao Rioja,Arampampa,66,782,051301,Arampampa,111011.746282,383793749.882,Arampampa,051301,05,13,01,-66.1259235733323,-17.9452662593967
124,Cochabamba,Esteban Arze,Sacabamba,67,783,030404,Sacabamba,75864.6619416,194880470.991,Sacabamba,030404,03,04,04,-65.7862639809658,-17.7764392711912
125,Cochabamba,Esteban Arze,Anzaldo,68,784,030402,Villa de Anzaldo,144450.5215,664987654.077,Anzaldo,030402,03,04,02,-65.9166998215787,-17.8436630605234
126,Cochabamba,Germán Jordán,Toco,69,785,030802,Toco,44453.3613636,61456793.5379,Toco,030802,03,08,02,-65.9204866923335,-17.6474732512396
127,Cochabamba,Punata,Cuchumuela,70,786,031405,Villa Gualberto Villarroel,44882.6483249,72135332.0628,Cuchumuela,031405,03,14,05,-65.7710675440748,-17.6900107349071
128,Cochabamba,Punata,Tacachi,71,787,031404,Tacachi,24659.8566941,19834794.6344,Tacachi,031404,03,14,04,-65.7885213397417,-17.6380003189064
129,Cochabamba,Germán Jordán,Cliza,73,790,030801,Cliza,42134.4435602,55314228.8777,Cliza,030801,03,08,01,-65.9366933103222,-17.5819403873028
130,Cochabamba,Arque,Tacopaya,74,791,030602,Tacopaya,121984.916861,583249279.638,Tacopaya,030602,03,06,02,-66.6258990691778,-17.8265119660227
131,Oruro,Cercado,El Choro,75,792,040103,El Choro,221348.108831,1037616099.83,El Choro,040103,04,01,03,-67.1747060492871,-18.2642337694966
132,Oruro,Saucarí,Toledo,76,793,041001,Toledo,311866.669681,3035120240.3,Toledo,041001,04,10,01,-67.4132013067166,-18.2756280454663
133,Cochabamba,Capinota,Santiváñez,84,801,030702,Villa Santivañez,84234.4613566,297562839.722,Santiváñez,030702,03,07,02,-66.2180182100202,-17.5735890139536
134,Oruro,Cercado,Pari - Paria - Soracachi,85,802,040104,Soracachi,211634.42432,1451599172.65,Pari - Paria - Soracachi,040104,04,01,04,-66.9359625627144,-17.8571852893812
135,La Paz,Aroma,Collana,111,828,021307,Collana,57912.1774855,105540656.688,Collana,021307,02,13,07,-68.3011802328782,-16.9037204269581
136,Cochabamba,Germán Jordán,Tolata,87,804,030803,Tolata,45539.3078598,70836276.4906,Tolata,030803,03,08,03,-66.002703056162,-17.526695060612
137,Pando,Nicolás Suárez,Cobija,156,875,090101,Cobija,134470.814682,450034095.794,Cobija,090101,09,01,01,-68.8720169166414,-11.0792694148682
138,Oruro,Tomás Barrón,Eucaliptus,89,806,041101,Eucaliptus,88692.2312725,364258754.208,Eucaliptus,041101,04,11,01,-67.4408341886087,-17.6345754501136
139,La Paz,Pacajes,Callapa,91,808,020308,Santiago de Callapa,173662.916183,1183435702.48,Callapa,020308,02,03,08,-68.347086567861,-17.4008863208321
140,Cochabamba,Cercado,Cochabamba,93,810,030101,Cochabamba,85603.6215635,285440850.67,Cochabamba,030101,03,01,01,-66.1686801615908,-17.4251476077315
141,Oruro,Cercado,Caracollo,94,811,040102,Caracollo,351577.018506,2357249677.45,Caracollo,040102,04,01,02,-67.292236370685,-17.6914276164379
142,La Paz,José Manuel Pando,Catacora,95,812,021902,Catacora,115659.153197,520381542.376,Catacora,021902,02,19,02,-69.4804933812135,-17.2527050745539
143,La Paz,Loayza,Yaco,96,813,020903,Yaco,138073.026711,591147902.522,Yaco,020903,02,09,03,-67.398737644732,-17.2401309977248
144,La Paz,Pacajes,Calacoto,97,814,020303,Calacoto,428362.642952,3876590411.28,Calacoto,020303,02,03,03,-68.7722834704818,-17.5623852040047
145,Cochabamba,Arani,Arani,98,816,030501,Arani,60090.9736438,204488094.619,Arani,030501,03,05,01,-65.7265704639251,-17.5927234327851
146,Cochabamba,Punata,Punata,99,817,031401,Villa Punata,49869.1874556,85285625.943,Punata,031401,03,14,01,-65.8314316534097,-17.5492548091566
147,La Paz,Aroma,Sica Sica,100,818,021301,Villa Aroma,239214.391326,1725581724.02,Sica Sica,021301,02,13,01,-67.6191167783635,-17.3745007195097
148,La Paz,Aroma,Patacamaya,102,820,021305,Patacamaya,144024.207782,552704355.589,Patacamaya,021305,02,13,05,-67.9132948531966,-17.2165275643683
149,La Paz,Aroma,Colquencha,104,822,021306,Colquencha,89538.1573308,338738534.754,Colquencha,021306,02,13,06,-68.2569732273092,-16.9918965683801
150,La Paz,José Manuel Pando,Santiago de Machaca,105,823,021901,Santiago de Machaca,216937.305611,1293393700.65,Santiago de Machaca,021901,02,19,01,-69.2705756351393,-17.1895237793907
151,Pando,Madre de Dios,Sena,157,876,090303,Sena,408628.107238,7540340894.89,Sena,090303,09,03,03,-67.359219644952,-11.8554927070295
152,Pando,Madre de Dios,San Lorenzo,158,877,090302,San Lorenzo,522033.622759,3160740947.5,San Lorenzo,090302,09,03,02,-66.8211472307404,-11.5962354718087
153,Beni,José Ballivian,Santa Rosa,159,878,080303,Santa Rosa,976490.851515,9456625697.71,Santa Rosa,080303,08,03,03,-66.6614463291164,-13.3188019469542
154,La Paz,Loayza,Malla,110,827,020904,Malla,93822.9916721,347961404.415,Malla,020904,02,09,04,-67.4268160940424,-17.0114433363426
155,La Paz,Pacajes,Comanche,112,829,020304,Comanche,120084.156414,446796887.551,Comanche,020304,02,03,04,-68.4501625275863,-16.9504409324819
156,La Paz,Aroma,Calamarca,113,830,021304,Calamarca,100987.228259,476955060.796,Calamarca,021304,02,13,04,-68.1124294395646,-16.8904620564981
157,La Paz,Ingavi,Viacha,116,833,020801,Viacha,135346.202562,842551399.895,Viacha,020801,02,08,01,-68.3106596028952,-16.7338602031081
158,La Paz,Inquisivi,Villa Libertad Licoma,119,836,021006,Villa Libertad Licoma,63489.2735719,195466880.607,Villa Libertad Licoma,021006,02,10,06,-67.2031454102521,-16.8118939612951
159,La Paz,Inquisivi,Quime,120,837,021002,Quime,180521.924344,989655306.921,Quime,021002,02,10,02,-67.3409054041315,-16.8489241803456
160,La Paz,Omasuyos,Huatajata,184,907,020205,Huatajata,18634.687414,19396445.4222,Huatajata,020206,02,02,06,-68.6906457735921,-16.1979479003083
161,La Paz,Los Andes,Laja,121,838,021202,Laja,142821.889429,685361696.861,Laja,021202,02,12,02,-68.4595793711219,-16.5885072348896
162,La Paz,Murillo,Mecapaca,122,839,020103,Mecapaca,120890.891423,519758762.253,Mecapaca,020103,02,01,03,-67.9786479266568,-16.7185390939937
163,La Paz,Murillo,Palca,123,840,020102,Palca,153287.169187,730646234.898,Palca,020102,02,01,02,-67.8261284626277,-16.6663930464477
164,La Paz,Murillo,Achocalla,124,841,020104,Achocalla,81415.043059,176903525.741,Achocalla,020104,02,01,04,-68.1253480284667,-16.6622681304258
165,La Paz,Murillo,El Alto,125,842,020105,El Alto,131623.813666,345283807.756,El Alto,020105,02,01,05,-68.2034021863692,-16.4687185262448
166,La Paz,Sud Yungas,Yanacachi,126,843,021103,Yanacachi,127285.145298,575961181.297,Yanacachi,021103,02,11,03,-67.7894846154121,-16.4257032731071
167,Cochabamba,Tapacarí,Tapacarí,127,844,031101,Tapacarí,240756.162373,1557429586.45,Tapacarí,031101,03,11,01,-66.6515149395338,-17.5708299139998
168,La Paz,Ingavi,Desaguadero,128,846,020804,Desaguadero,45559.4065815,103169808.663,Desaguadero,020804,02,08,04,-68.9781224159186,-16.6142041969574
169,La Paz,Ingavi,Jesús de Machaca,129,847,020806,Jesús de Machaka,178908.193528,984997401.106,Jesús de Machaca,020806,02,08,06,-68.7399815152477,-16.7606925054609
170,La Paz,Ingavi,Guaqui,130,848,020802,Guaqui,86552.6781534,189577060.805,Guaqui,020802,02,08,02,-68.8207958991554,-16.6066211799455
171,La Paz,Manco Kapac,Tito Yupanqui,131,849,021703,Tito Yupanqui,20535.8478203,12821764.7414,Tito Yupanqui,021703,02,17,03,-68.9594685913901,-16.1799361385497
172,La Paz,Los Andes,Pucarani,132,850,021201,Pucarani,228476.13214,1247657912.06,Pucarani,021201,02,12,01,-68.4161974462692,-16.3605032828605
173,La Paz,Larecaja,Combaya,133,851,020605,Combaya,48550.1065916,89900004.7551,Combaya,020605,02,06,05,-68.7534058324721,-15.8159310384345
174,La Paz,Nor Yungas,Coroico,134,852,021401,Coroico,169551.531275,1083614255.86,Coroico,021401,02,14,01,-67.7725586188132,-16.1624546030119
175,La Paz,Nor Yungas,Coripata,135,853,021402,Coripata,161788.348203,687489059.332,Coripata,021402,02,14,02,-67.5673275120252,-16.2090484060227
176,La Paz,Larecaja,Quiabaya,136,854,020604,Quiabaya,50003.1323946,117556861.191,Quiabaya,020604,02,06,04,-68.7141967695143,-15.6024110098245
177,La Paz,Muñecas,Aucapata,137,855,020503,Aucapata,66805.2545147,232761629.272,Aucapata,020503,02,05,03,-68.6994878574048,-15.4381070956324
178,La Paz,Aroma,Ayo Ayo,193,921,021303,Ayo Ayo,116842.333708,554548407.991,Ayo Ayo,021303,02,13,03,-68.0196630274993,-17.0767428796722
179,Chuquisaca,Azurduy,Azurduy,194,923,010201,Villa Azurduy,239446.51281,1723223136.86,Azurduy,010201,01,02,01,-64.4329027861543,-20.1813721150792
180,La Paz,Larecaja,Tipuani,138,856,020606,Tipuani,83509.1147629,246480711.618,Tipuani,020606,02,06,06,-68.0559593420941,-15.5844232152753
181,La Paz,Murillo,La Paz,139,857,020101,Nuestra Señora de La Paz,321944.83565,2026916685.96,La Paz,020101,02,01,01,-67.971655013299,-16.1676123350302
182,La Paz,Larecaja,Sorata,140,858,020601,Sorata,258381.617668,1888074238.28,Sorata,020601,02,06,01,-68.4941244189892,-15.7193386157593
183,La Paz,Sud Yungas,La Asunta,141,859,021105,La Asunta,279757.968184,2810760968.62,La Asunta,021105,02,11,05,-67.1559185053217,-16.1080348590619
184,La Paz,Muñecas,Chuma,142,860,020501,Chuma,137884.075418,613678889.186,Chuma,020501,02,05,01,-68.8656492078407,-15.5932017197922
185,La Paz,Larecaja,Guanay,143,861,020602,Guanay,447538.911802,3585793230.67,Guanay,020602,02,06,02,-68.0422654700925,-15.7361562485886
186,La Paz,Larecaja,Teoponte,144,862,020608,Teoponte,229009.109389,1368891535.79,Teoponte,020608,02,06,08,-67.6872267580546,-15.4074545850914
187,La Paz,Larecaja,Mapiri,145,863,020607,Mapiri,256488.719575,1489406526.23,Mapiri,020607,02,06,07,-68.2577514524079,-15.3800526701117
188,La Paz,Bautista Saavedra,Charazani,146,864,021601,Villa General Juan José Pérez,308722.576295,2458780120.32,Charazani,021601,02,16,01,-68.7737395736969,-15.0965520191652
189,Potosí,José María Linares,"Caiza ""D""",195,924,051102,"Caiza ""D""",217943.738508,1314322824.33,"Caiza ""D""",051102,05,11,02,-65.6536114844715,-20.0113212108415
190,La Paz,Manco Kapac,Copacabana,196,2085,021701,Copacabana,152835.848541,176264627.762,Copacabana,021701,02,17,01,-69.0641515155408,-16.1364810727363
191,Chuquisaca,Azurduy,Tarvita,197,926,010202,Villa Orías,187141.272602,1348324218.24,Tarvita,010202,01,02,02,-64.5617629467188,-19.7721548831291
192,Potosí,Cornelio Saavedra,Chaquí,198,927,050302,Chaquí,124115.19201,464665154.901,Chaquí,050302,05,03,02,-65.5460617741139,-19.6250138306927
193,Potosí,José María Linares,Puna,199,928,051101,Villa Talavera,307945.349814,1472026189.95,Puna,051101,05,11,01,-65.4001160327473,-19.8768040535635
194,Potosí,José María Linares,Ckochas,200,930,051103,Ckochas,328508.372345,2079646062.83,Ckochas,051103,05,11,03,-65.0221700181944,-19.7421104015947
195,Chuquisaca,Tomina,El Villar,201,931,010405,El Villar,143970.877299,886107030.933,El Villar,010405,01,04,05,-64.2752432186599,-19.6912768467376
196,Chuquisaca,Luis Calvo,Huacaya,202,932,011002,Villa de Huacaya,200475.636978,1277229813.86,Huacaya,011002,01,10,02,-63.5947629470969,-20.7165799368621
197,La Paz,Larecaja,Tacacoma,203,933,020603,Tacacoma,202903.517884,793954876.521,Tacacoma,020603,02,06,03,-68.5230229399487,-15.3924830867553
198,Chuquisaca,Hernando Siles,Huacareta,204,935,010502,San Pablo de Huacareta,319966.319469,2956465470.49,Huacareta,010502,01,05,02,-64.0099327756941,-20.5945524182234
199,Chuquisaca,Hernando Siles,Monteagudo,205,936,010501,Monteagudo,443958.392451,3366844215.06,Monteagudo,010501,01,05,01,-64.0750637644612,-20.0146701049309
200,Potosí,Tomás Frías,Potosí,206,937,050101,Potosí,221861.702142,1190163267.22,Potosí,050101,05,01,01,-65.7220285692446,-19.5374253863972
201,La Paz,Manco Kapac,San Pedro de Tiquina,207,2051,021702,San Pedro de Tiquina,78555.0887152,61815800.8634,San Pedro de Tiquina,021702,02,17,02,-68.8656729274229,-16.2318753125785
202,Santa Cruz,Cordillera,Lagunillas,208,938,070701,Lagunillas,219324.414858,1104531221.85,Lagunillas,070701,07,07,01,-63.6449341325052,-19.7716008004372
203,Chuquisaca,Tomina,Villa Alcalá,209,939,010404,Alcalá,100617.425294,304076777.877,Villa Alcalá,010404,01,04,04,-64.373883213574,-19.4321348701689
204,Chuquisaca,Tomina,Sopachuy,210,940,010403,Villa de Sopachui,136232.355313,583540189.518,Sopachuy,010403,01,04,03,-64.5352218161622,-19.4622942158867
205,Chuquisaca,Zudáñez,Icla,211,941,010304,Icla,138278.474444,797330657.753,Icla,010304,01,03,04,-64.7463772751859,-19.4653324372079
206,Chuquisaca,Oropeza,Yotala,212,942,010102,Yotala,102471.852439,432212224.136,Yotala,010102,01,01,02,-65.264846979892,-19.2250382884842
207,Chuquisaca,Yamparáez,Yamparáez,213,943,010602,Yamparáez,153846.212804,639168036.335,Yamparáez,010602,01,06,02,-65.0700314798474,-19.2435381393914
208,Chuquisaca,Tomina,Tomina,214,944,010402,Villa de Tomina,161632.780397,807911809.856,Tomina,010402,01,04,02,-64.4949701994883,-19.1608600057486
209,Potosí,Chayanta,Ocurí,215,946,050404,Ocurí,173404.012466,858129748.07,Ocurí,050404,05,04,04,-65.7684325587049,-18.8898291284339
210,Chuquisaca,Yamparáez,Tarabuco,216,947,010601,Tarabuco,208927.148931,1076620093.61,Tarabuco,010601,01,06,01,-64.9098102481473,-19.1214800592213
211,Chuquisaca,Zudáñez,Zudáñez,217,948,010301,Villa Zudáñez,132772.386522,653980924.424,Zudáñez,010301,01,03,01,-64.6879862089446,-19.1279911384036
212,La Paz,Bautista Saavedra,Curva,147,865,021602,Curva,149327.893825,580887323.197,Curva,021602,02,16,02,-68.9654822172202,-14.9852162421346
213,La Paz,Franz Tamayo,Pelechuco,148,866,020702,Pelechuco,298368.622607,2433038221.38,Pelechuco,020702,02,07,02,-69.0906685953332,-14.8007388723506
214,La Paz,Sud Yungas,Palos Blancos,149,867,021104,Palos Blancos,454546.595309,3708161068.56,Palos Blancos,021104,02,11,04,-67.2315769414802,-15.4177204729657
215,La Paz,Franz Tamayo,Apolo,150,869,020701,Apolo,782995.97278,14142705952.5,Apolo,020701,02,07,01,-68.2326614761822,-14.6585655754991
216,Beni,José Ballivian,Rurrenabaque,151,870,080304,Rurrenabaque,299856.443258,2503305911.5,Rurrenabaque,080304,08,03,04,-67.3057075228477,-14.6886206363714
217,La Paz,Abel Iturralde,San Buenaventura,152,871,021502,San Buenaventura,316982.607116,2949463205.49,San Buenaventura,021502,02,15,02,-67.744956617106,-14.259150449502
218,Beni,Yacuma,Santa Ana de Yacuma,153,872,080401,Santa Ana de Yacuma,938729.649639,21178632090.5,Santa Ana de Yacuma,080401,08,04,01,-65.9964437658189,-14.3502342184097
219,Beni,José Ballivian,San Borja,154,873,080302,San Borja,538056.408778,8739067952.25,San Borja,080302,08,03,02,-66.8085064451429,-15.0036972474189
220,Beni,José Ballivian,Reyes,155,874,080301,Reyes,1203891.19271,11846271172.2,Reyes,080301,08,03,01,-67.0580571325431,-13.4029031906111
221,Pando,Madre de Dios,Puerto Gonzalo Moreno,160,879,090301,Puerto Gonzalo Moreno,265294.566227,1269439216.81,Puerto Gonzalo Moreno,090301,09,03,01,-66.3251035522144,-11.1671180412132
222,Beni,Mamoré,Puerto Siles,161,880,080703,Puerto Siles,320208.03604,2079653404.31,Puerto Siles,080703,08,07,03,-64.9863357204361,-12.4241856019541
223,Beni,Yacuma,Exaltación,162,882,080402,Exaltación,807142.906858,24835429665.8,Exaltación,080402,08,04,02,-65.7831816945047,-12.8039581393547
224,Beni,Vaca Díez,Riberalta,163,883,080201,Riberalta,843888.072352,12797900799.9,Riberalta,080201,08,02,01,-66.1008077671188,-11.5278757456893
225,Pando,Nicolás Suárez,Porvenir,164,884,090102,Porvenir,242475.089027,1074941297.03,Porvenir,090102,09,01,02,-68.7933691483436,-11.2382344524231
226,Pando,Nicolás Suárez,Bella Flor,165,885,090104,Bella Flor,738697.480987,5233178963.66,Bella Flor,090104,09,01,04,-67.9314607640592,-10.9320990923665
227,Pando,Manuripi,San Pedro,166,886,090202,San Pedro,538558.808312,2639283856.17,San Pedro,090202,09,02,02,-66.5899771035533,-11.0253770553547
228,Pando,Manuripi,Puerto Rico,167,887,090201,Puerto Rico,529287.872495,5254906051.73,Puerto Rico,090201,09,02,01,-67.5379692707796,-11.3276852924105
229,Pando,Abuná,Santa Rosa,168,888,090401,Santa Rosa,444046.539784,4416076075.39,Santa Rosa,090401,09,04,01,-67.2788428097444,-10.7316108589045
230,Pando,Abuná,Ingavi,169,889,090402,Ingavi,443914.597048,5435654274.47,Ingavi,090402,09,04,02,-66.7473248683185,-10.5045770982888
231,Beni,Vaca Díez,Guayaramerín,170,890,080202,Guayaramerín,680809.71494,6492855676.58,Guayaramerín,080202,08,02,02,-65.4349889567952,-11.3089109596456
232,Pando,Federico Román,Villa Nueva (Loma Alta),171,891,090502,Loma Alta,352415.778547,2828368735.79,Villa Nueva (Loma Alta),090502,09,05,02,-66.1054919009813,-10.6509481125646
233,Pando,Federico Román,Santos Mercado,172,892,090503,Santos Mercado,413690.76427,6639493254.49,Santos Mercado,090503,09,05,03,-66.1364085682698,-10.1534284189824
234,Pando,Federico Román,Nueva Esperanza,173,893,090501,Nueva Esperanza,310973.950841,3664177243.47,Nueva Esperanza,090501,09,05,01,-65.5377979823088,-10.1113030748514
235,La Paz,Omasuyos,Santiago de Huata,174,895,020204,Santiago de Huata,64818.8771481,92757133.6851,Santiago de Huata,020205,02,02,05,-68.8350826040947,-16.0862560037651
236,La Paz,Los Andes,Puerto Pérez,175,897,021204,Puerto Pérez,115948.220199,65124354.2983,Puerto Pérez,021204,02,12,04,-68.6493218266136,-16.327016693631
237,,,,176,2083,Lago,,864933.443036,3099823515.89,,,,,,-69.0381420813384,-16.0389474711217
238,Potosí,Rafael Bustillo,Chuquihuta,177,900,050204,Chuquihuta Ayllu Jucumani,77968.1073831,260610083.663,Chuquihuta,050204,05,02,04,-66.3534063365298,-18.6322964173622
239,Pando,Nicolás Suárez,Bolpebra,178,901,090103,Bolpebra,289605.643628,2479359754.3,Bolpebra,090103,09,01,03,-69.2262165173705,-11.1701631293251
240,Pando,Manuripi,Filadelfia,179,902,090203,Filadelfia,657621.344383,11750197495.7,Filadelfia,090203,09,02,03,-68.5327854297566,-11.7560069991533
241,La Paz,Caranavi,Alto Beni,180,903,022002,Alto Beni,197113.137104,1037681685.06,Alto Beni,022002,02,20,02,-67.3895335418439,-15.6055312211789
242,La Paz,Caranavi,Caranavi,181,904,022001,Caranavi,192843.582744,1542249279.62,Caranavi,022001,02,20,01,-67.4878704042974,-15.8448535295035
243,La Paz,Omasuyos,Huarina,182,905,020203,Huarina,89918.7387113,180705821.857,Huarina,020204,02,02,04,-68.5932845742013,-16.1651689690097
244,Cochabamba,Bolívar,Bolívar,183,906,031501,Bolivar,127275.33941,679841833.875,Bolívar,031501,03,15,01,-66.6445215579073,-18.0155672477883
245,La Paz,Omasuyos,Chua Cocani,185,908,020206,Chua Cocani,39532.9740821,80598196.7777,Chua Cocani,020203,02,02,03,-68.7517552825835,-16.1583323571501
246,La Paz,Camacho,Humanata,190,917,020404,Humanata,84759.1912997,287415035.633,Humanata,020404,02,04,04,-69.1708301427012,-15.4144189315398
247,Chuquisaca,Luis Calvo,Muyupampa,218,949,011001,Villa Vaca Guzmán,566913.154978,3763770092.63,Muyupampa,011001,01,10,01,-63.8024066901736,-19.8930532773625
248,La Paz,Los Andes,Batallas,191,918,021203,Batallas,165217.313344,785916892.389,Batallas,021203,02,12,03,-68.4336173989168,-16.164378699969
249,Chuquisaca,Tomina,Padilla,219,950,010401,Padilla,262164.955434,1658371876.01,Padilla,010401,01,04,01,-64.1608556845282,-19.3747347205504
250,Chuquisaca,Zudáñez,Mojocoya,220,952,010303,Villa de Mojocoya,182348.130191,1231893963,Mojocoya,010303,01,03,03,-64.644170912844,-18.780281949597
251,Santa Cruz,Vallegrande,Pucará,221,953,070805,Pucará,148702.926779,679398291.831,Pucará,070805,07,08,05,-64.1910689536664,-18.7624792781377
252,Chuquisaca,Belisario Boeto,Villa Serrano,222,954,010801,Villa Serrano,234359.726372,1720333213.54,Villa Serrano,010801,01,08,01,-64.3000302011932,-18.9518702213329
253,Chuquisaca,Luis Calvo,Macharetí,223,955,011003,Villa de Macharetí,436813.473944,7957333363.54,Macharetí,011003,01,10,03,-62.8789864882515,-20.725403973973
254,Santa Cruz,Cordillera,Boyuibe,224,956,070707,Boyuibe,223637.502505,1618607630.06,Boyuibe,070707,07,07,07,-63.0762803584864,-20.338843444225
255,Santa Cruz,Cordillera,Cuevo,225,957,070704,Cuevo,139162.566072,883607095.457,Cuevo,070704,07,07,04,-63.5393077030957,-20.3301953027888
256,Santa Cruz,Cordillera,Camiri,226,958,070706,Camiri,171672.45119,1003125713.2,Camiri,070706,07,07,06,-63.4878476925433,-20.0347998762007
257,Cochabamba,Ayopaya,Cocapata,227,959,030303,Cocapata,476872.433954,7067033307.17,Cocapata,030303,03,03,03,-66.5522129677544,-16.4890752117229
258,Santa Cruz,Vallegrande,Vallegrande,228,960,070801,Vallegrande,440288.254917,3198766508.38,Vallegrande,070801,07,08,01,-63.9403741286506,-18.7837453792553
259,Santa Cruz,Cordillera,Gutiérrez,229,961,070705,Gutiérrez,352329.360613,2856145979.72,Gutiérrez,070705,07,07,05,-63.5017125668635,-19.3959952514398
260,Chuquisaca,Oropeza,Sucre,230,962,010101,Sucre,322638.456106,1671113364.51,Sucre,010101,01,01,01,-65.2504832028469,-18.9377067380833
261,Chuquisaca,Zudáñez,Presto,231,963,010302,Presto,203514.775073,1343330124.54,Presto,010302,01,03,02,-64.8930290540039,-18.7556524931929
262,Santa Cruz,Vallegrande,Postrer Valle,232,965,070804,Postrervalle,215326.818682,1110762832.92,Postrer Valle,070804,07,08,04,-63.7631777003327,-18.6250769658469
263,Santa Cruz,Vallegrande,Trigal,233,966,070802,Trigal,108389.008335,397986973.09,Trigal,070802,07,08,02,-64.1326643090948,-18.2870823246927
264,Santa Cruz,Florida,Quirusillas,234,967,070904,Quirusillas,97143.9540852,285448920.298,Quirusillas,070904,07,09,04,-63.9374563818226,-18.3705717191259
265,Santa Cruz,Cordillera,Cabezas,235,968,070703,Cabezas,416413.431364,4987491668.35,Cabezas,070703,07,07,03,-63.2684722905935,-18.4638933191467
266,Santa Cruz,Andrés Ibáñez,Cotoca,240,974,070102,Cotoca,106358.196307,616754334.156,Cotoca,070102,07,01,02,-62.9082845306951,-17.754782600358
267,Santa Cruz,Ichilo,Yapacaní,257,995,070403,Yapacaní,1028157.38753,9545779861.46,Yapacaní,070403,07,04,03,-64.3623609582402,-16.7512485332555
268,Santa Cruz,Ñuflo de Chávez,Cuatro Cañadas,258,996,071106,Cuatro Cañadas,378236.296718,4426020137.8,Cuatro Cañadas,071106,07,11,06,-62.2427429469191,-17.2374050689912
269,Santa Cruz,Ñuflo de Chávez,San Ramón,259,997,071105,San Ramón,171474.423294,500259321.615,San Ramón,071103,07,11,03,-62.4345709129243,-16.5769120246753
270,Santa Cruz,Ñuflo de Chávez,San Javier,260,998,071102,San Javier,291826.876681,2256081262.65,San Javier,071102,07,11,02,-62.4908696081839,-16.2337483369735
271,Santa Cruz,Velasco,San Miguel de Velasco,261,999,070302,San Miguel,549050.722142,9544769475.62,San Miguel de Velasco,070302,07,03,02,-61.2723847203172,-16.8429988471826
272,Cochabamba,Chapare,Villa Tunari,262,1000,031003,Villa Tunari,880218.905034,11091913555.5,Villa Tunari,031003,03,10,03,-65.5718414091237,-16.6345876953871
273,Cochabamba,Carrasco,Chimoré,263,1001,031204,Chimoré,701718.976757,2766752183.73,Chimoré,031204,03,12,04,-64.9113398629289,-16.558530260099
274,Cochabamba,Tiraque,Tiraque,264,1002,031601,Tiraque,221710.995643,1974498206.03,Tiraque,031601,03,16,01,-65.517303195788,-17.3366441525435
275,Cochabamba,Tiraque,Shinahota,265,1003,031602,Shinahota,180025.937074,732404163.208,Shinahota,031602,03,16,02,-65.3185483168772,-17.0592979540784
276,Santa Cruz,Obispo Santistevan,Montero,245,980,071001,Montero,83504.1117232,245017212.196,Montero,071001,07,10,01,-63.2499004885462,-17.3328692561995
277,Santa Cruz,Guarayos,Ascensión de Guarayos,284,1027,071501,Ascención de Guarayos,1035885.64726,8974556170.64,Ascensión de Guarayos,071501,07,15,01,-63.4308759118352,-15.3439097856785
278,Beni,Marbán,San Andrés,285,1028,080602,San Andrés,681006.182286,9899749585.36,San Andrés,080602,08,06,02,-64.1423001989947,-15.3740069743089
279,Cochabamba,Arani,Vacas,246,981,030502,Vacas,101539.195865,346331438.695,Vacas,030502,03,05,02,-65.5825610899169,-17.5890419755077
280,Cochabamba,Carrasco,Pocona,247,982,031203,Pocona,199534.544841,902793222.344,Pocona,031203,03,12,03,-65.3718448584011,-17.6818010527496
281,Santa Cruz,Warnes,Okinawa Uno,248,983,070202,Okinawa Uno,185986.50209,1026046494.51,Okinawa Uno,070202,07,02,02,-62.8655455030441,-17.3227717366935
282,Santa Cruz,Warnes,Warnes,249,984,070201,Warnes,216039.268132,1332844025.57,Warnes,070201,07,02,01,-63.0701384196372,-17.4117280542801
283,Santa Cruz,Obispo Santistevan,Gral. Saavedra,250,985,071002,General Saavedra,130057.924024,530968479.252,Gral. Saavedra,071002,07,10,02,-63.1762704830798,-17.1681743435083
284,Santa Cruz,Chiquitos,Pailón,251,986,070502,Pailón,589658.830352,13671621371.8,Pailón,070502,07,05,02,-61.9214028779243,-17.7571194016126
285,Santa Cruz,Obispo Santistevan,Fernández Alonso,252,987,071004,Fernández Alonso,163819.696927,758971567.694,Fernández Alonso,071004,07,10,04,-63.2123215958423,-16.888634925126
286,Santa Cruz,Obispo Santistevan,Mineros,253,989,071003,Mineros,139245.443482,424053263.861,Mineros,071003,07,10,03,-63.2730267245449,-17.0528301372171
287,Santa Cruz,Florida,Pampa Grande,254,990,070902,Pampa Grande,205556.574968,1000146080.25,Pampa Grande,070902,07,09,02,-64.1534336693437,-18.0454004315492
288,Santa Cruz,Florida,Mairana,255,991,070903,Mairana,165835.968317,738862614.14,Mairana,070903,07,09,03,-64.0068969626455,-17.9845787204085
289,Cochabamba,Carrasco,Puerto Villarroel,256,994,031205,Puerto Villarroel,337995.501628,1963640777.16,Puerto Villarroel,031205,03,12,05,-64.884555229912,-17.032569024307
290,Santa Cruz,Sara,Colpa Bélgica,272,1012,070603,Colpa Bélgica,82422.7694217,289734002.695,Colpa Bélgica,070603,07,06,03,-63.2923460743498,-17.5434926097159
291,Santa Cruz,Germán Busch,Puerto Suárez,273,1013,071401,Puerto Suarez,755672.650568,13335518031.8,Puerto Suárez,071401,07,14,01,-58.2566122872662,-19.0713866598344
292,Santa Cruz,Germán Busch,Carmen Rivero Tórrez,274,1014,071403,El Carmen Rivero Tórrez,467478.895301,10616557491.7,Carmen Rivero Tórrez,071403,07,14,03,-58.5863697438069,-18.4554752109555
293,Santa Cruz,Chiquitos,Roboré,275,1015,070503,Roboré,445423.577322,7146879247.34,Roboré,070503,07,05,03,-59.6118829433785,-18.2154045301619
294,Santa Cruz,Ángel Sandóval,San Matías,276,1016,071201,San Matías,837966.610953,26918861174.1,San Matías,071201,07,12,01,-58.82334641093,-17.2550659997438
295,Santa Cruz,Cordillera,Charagua,277,1017,070702,Charagua,1407361.18559,70558733450,Charagua,070702,07,07,02,-61.6009595333729,-19.0904852714863
296,Santa Cruz,Chiquitos,San José de Chiquitos,278,1018,070501,San José,706753.774725,18965291913.1,San José de Chiquitos,070501,07,05,01,-60.4248016975989,-17.7022304911891
297,Santa Cruz,Velasco,San Rafael,279,1019,070303,San Rafael,443292.952638,9642930524.55,San Rafael,070303,07,03,03,-60.1409580350977,-16.81549661635
298,Cochabamba,Ayopaya,Independencia,280,1020,030301,Villa de Independencia,220302.702206,1487863673.27,Independencia,030301,03,03,01,-66.8052874220754,-17.1439084254786
299,Santa Cruz,Velasco,San Ignacio de Velasco,281,1023,070301,San Ignacio,1339308.94244,49066305520.6,San Ignacio de Velasco,070301,07,03,01,-60.9945359351457,-15.0296081097467
300,Santa Cruz,Guarayos,Urubichá,282,1024,071502,Urubicha,950284.618734,16226273271.1,Urubichá,071502,07,15,02,-63.0185819905283,-14.9527337817989
301,Beni,Iténez,Baures,283,1026,080802,Baures,901863.690613,17596661580.8,Baures,080802,08,08,02,-62.8753745079206,-13.6251416398037
302,Beni,Cercado,Trinidad,287,1030,080101,Trinidad,322806.175114,1882037229.34,Trinidad,080101,08,01,01,-64.6573311134653,-14.834972122979
303,Santa Cruz,Ñuflo de Chávez,San Antonio de Lomerío,291,1036,071104,San Antonio de Lomerio,303161.763314,2369554866.49,San Antonio de Lomerío,071105,07,11,05,-61.8741502326381,-16.8063462088608
304,Cochabamba,Carrasco,Pojo,292,1037,031202,Pojo,282555.774992,2388397736.47,Pojo,031202,03,12,02,-64.8635341578358,-17.6005309109989
305,Cochabamba,Carrasco,Entre Ríos,293,1039,031206,Entre Ríos,385947.599444,2181142011.31,Entre Ríos,031206,03,12,06,-64.5464308380648,-17.3121829917319
306,Chuquisaca,Oropeza,Poroma,294,1040,010103,Poroma,291112.014406,1424582372.44,Poroma,010103,01,01,03,-65.3851526257266,-18.6217965608929
307,Cochabamba,Chapare,Colomi,295,1041,031002,Colomi,130158.751056,511636622.358,Colomi,031002,03,10,02,-65.9205656841041,-17.2332683780007
308,Cochabamba,Mizque,Alalay,296,1042,031303,Alalay,102569.419201,415840264.578,Alalay,031303,03,13,03,-65.6300251915296,-17.773261044057
309,Cochabamba,Mizque,Vila Vila,297,1043,031302,Vila Vila,134485.315375,594273396.855,Vila Vila,031302,03,13,02,-65.6714027837532,-17.9782481521365
310,La Paz,Abel Iturralde,Ixiamas,298,1045,021501,Ixiamas,1229587.02505,36968174475.8,Ixiamas,021501,02,15,01,-68.018726394737,-13.090144897172
311,La Paz,Muñecas,Ayata,299,1046,020502,Ayata,176907.950907,743338384.145,Ayata,020502,02,05,02,-68.7109999103527,-15.3200138151453
312,Potosí,Antonio Quijarro,Uyuni,300,1047,051201,Uyuni,731001.59439,7612800491.84,Uyuni,051201,05,12,01,-66.7893740363155,-20.0652777195733
313,La Paz,Pacajes,Waldo Ballivián,301,1048,020306,Waldo Ballivian,42668.1033712,107867194.036,Waldo Ballivián,020306,02,03,06,-68.2193859264866,-17.1150973218501
314,Oruro,Sajama,Curahuara de Carangas,302,1049,040401,Curahuara de Carangas,319731.532544,2846754826.32,Curahuara de Carangas,040401,04,04,01,-68.6671726205388,-17.9886612689217
315,Oruro,Carangas,Choque Cota,303,1050,040302,Choquecota,151940.971085,888897361.986,Choque Cota,040302,04,03,02,-67.9549788457228,-18.1221125518609
316,Oruro,Litoral,Escara,309,1056,040502,Escara,184178.493888,1327036670.33,Escara,040502,04,05,02,-68.1593245707229,-18.6944143952814
317,Oruro,Sabaya,Coipasa,313,1060,040902,Coipasa,140968.041818,202911265.296,Coipasa,040902,04,09,02,-68.3127831912265,-19.3277545983723
318,Oruro,Sabaya,Chipaya,314,1061,040903,Chipaya,100106.043494,353986371.204,Chipaya,040903,04,09,03,-68.0477092278158,-19.062582303257
319,Potosí,Rafael Bustillo,Chayanta,315,1062,050202,Chayanta,150474.451958,627811284.695,Chayanta,050202,05,02,02,-66.3508319530904,-18.4143926229252
320,Oruro,Ladislao Cabrera,Salinas de Garci Mendoza,316,1063,040801,Salinas de Garcí Mendoza,477449.990182,5591484260.51,Salinas de Garci Mendoza,040801,04,08,01,-67.6141140058377,-19.4366831239089
321,Potosí,Sur Chichas,Tupiza,317,1064,050801,Tupiza,516707.326158,6164123557.95,Tupiza,050801,05,08,01,-65.796875757404,-21.4911320609525
322,Potosí,Sur Chichas,Atocha,318,1066,050802,Atocha,229933.211048,2326803823.09,Atocha,050802,05,08,02,-66.1698748052138,-21.0703456898781
323,Potosí,Nor Lípez,San Pedro de Quemes,319,1067,050902,Villa San Pedro de Quemes,332900.721969,4348967704.7,San Pedro de Quemes,050902,05,09,02,-68.1737905074623,-21.000150021901
324,Santa Cruz,Ñuflo de Chávez,San Julián,320,1068,071103,San Julián,485804.7394,5022001033.76,San Julián,071104,07,11,04,-62.8136314148439,-16.7929485545174
325,Santa Cruz,Guarayos,El Puente,321,1070,071503,El Puente,726225.878343,7884175255.34,El Puente,071503,07,15,03,-63.4849259679319,-16.1474817561629
326,Santa Cruz,Manuel María Caballero,Comarapa,322,1982,071301,Comarapa,352462.496662,3294774597.39,Comarapa,071301,07,13,01,-64.4320144373886,-17.8023709960235
327,Tarija,Aniceto Arce,Bermejo,323,1596,060202,Bermejo,124915.856312,391631648.254,Bermejo,060202,06,02,02,-64.3294082985212,-22.6731524429829
328,Chuquisaca,Nor Cinti,Villa Charcas,324,1800,010704,Villa Charcas,138222.854269,686796998.872,Villa Charcas,010704,01,07,04,-64.8207832572155,-20.5721724785183
329,La Paz,Camacho,Puerto Acosta,329,2003,020401,Puerto Acosta,158945.736833,349680884.165,Puerto Acosta,020401,02,04,01,-69.2157368417417,-15.5551665891465
330,La Paz,Camacho,Escoma,330,2018,020405,Escoma,65770.148194,120335696.793,Escoma,020405,02,04,05,-69.1492077733401,-15.6382075921806
331,La Paz,Pacajes,Charaña,331,2345,020305,Charaña,308460.568978,2905629189.74,Charaña,020305,02,03,05,-69.1570083991504,-17.6591690371965
332,La Paz,Omasuyos,Achacachi,332,2035,020201,Achacachi,208342.611067,741146963.713,Achacachi,020201,02,02,01,-68.6634010134805,-16.0167783595071
333,La Paz,Ingavi,Taraco,333,2527,020807,Taraco,75231.2939879,113842653.842,Taraco,020807,02,08,07,-68.8534890964577,-16.4623270628409
334,La Paz,Ingavi,San Andrés de Machaca,334,2531,020805,La (Marka) San Andrés de Machaca,188640.989358,1523713282.75,San Andrés de Machaca,020805,02,08,05,-69.0435127693817,-16.8997522472797
335,Potosí,Cornelio Saavedra,Tacobamba,335,2220,050303,Tacobamba,169651.228689,888275156.371,Tacobamba,050303,05,03,03,-65.5540232233938,-19.2132303208365
336,Oruro,Abaroa,Challapata,336,2533,040201,Challapata,399285.772838,2582067666.03,Challapata,040201,04,02,01,-66.5526441474782,-18.8905719881574
337,Potosí,Rafael Bustillo,Uncía,337,2535,050201,Uncía,124561.148457,693203441.577,Uncía,050201,05,02,01,-66.5314130634934,-18.5884256635056
338,Potosí,Chayanta,Ravelo,338,2537,050402,Ravelo,224106.582416,1346769602.61,Ravelo,050402,05,04,02,-65.5633750723575,-18.7526963851817
339,Cochabamba,Mizque,Mizque,339,2539,031301,Mizque,249087.72831,1866762252.23,Mizque,031301,03,13,01,-65.4197330651957,-18.0559570050632
340,Cochabamba,Campero,Pasorapa,340,2543,030202,Pasorapa,270361.608512,2364847827.66,Pasorapa,030202,03,02,02,-64.6008767836489,-18.3923311260034
341,Potosí,Nor Chichas,Cotagaita,341,2545,050601,Cotagaita,497808.000366,6461876599.89,Cotagaita,050601,05,06,01,-65.7693824907141,-20.6729439123932
342,Chuquisaca,Nor Cinti,Camargo,342,2547,010701,Camargo,233419.451665,2079723175.35,Camargo,010701,01,07,01,-65.1560295359152,-20.602546553092
343,Potosí,Modesto Omiste,Villazón,343,2549,051501,Villazón,309702.120496,2500130169.28,Villazón,051501,05,15,01,-65.6419358055421,-21.9131993250976
344,Tarija,Aniceto Arce,Padcaya,344,2551,060201,Padcaya,436077.434483,4457745411.67,Padcaya,060201,06,02,01,-64.5295353517043,-22.1339014990439
